{
   "type": "FeatureCollection",
   "features": [
  {
    "type": "Feature",
    "geometry": {
       "type": "Point",
       "coordinates":  [ 140.575406,42.103429 ]
    },
    "properties": {
    "ID":1,
    "№":"第１号",
    "町名":"清澄町",
    "名称":"青葉ケ丘公園入口",
    "口数":1,
    "取水口":"",
    "容量(ℓ)":"40,000",
    "種別":"",
    "型式":"Ⅰ型",
    "耐震別":""
    }
  },
  {
    "type": "Feature",
    "geometry": {
       "type": "Point",
       "coordinates":  [ 140.515711,42.128076 ]
    },
    "properties": {
    "ID":2,
    "№":"第２号",
    "町名":"蛯谷町",
    "名称":"木村辰宏宅横",
    "口数":1,
    "取水口":"",
    "容量(ℓ)":"40,000",
    "種別":"",
    "型式":"Ⅰ型",
    "耐震別":"耐震"
    }
  },
  {
    "type": "Feature",
    "geometry": {
       "type": "Point",
       "coordinates":  [ 140.574424,42.105164 ]
    },
    "properties": {
    "ID":3,
    "№":"第３号",
    "町名":"清澄町",
    "名称":"森稲荷神社裏",
    "口数":2,
    "取水口":"",
    "容量(ℓ)":"30,000",
    "種別":"",
    "型式":"",
    "耐震別":""
    }
  },
  {
    "type": "Feature",
    "geometry": {
       "type": "Point",
       "coordinates":  [ 140.572531,42.105164 ]
    },
    "properties": {
    "ID":4,
    "№":"第４号",
    "町名":"上台町",
    "名称":"田中剛宅向",
    "口数":1,
    "取水口":"道路上",
    "容量(ℓ)":"40,000",
    "種別":"",
    "型式":"",
    "耐震別":""
    }
  },
  {
    "type": "Feature",
    "geometry": {
       "type": "Point",
       "coordinates":  [ 140.571914,42.104368 ]
    },
    "properties": {
    "ID":5,
    "№":"第５号",
    "町名":"上台町",
    "名称":"黒田宅前",
    "口数":1,
    "取水口":"道路上",
    "容量(ℓ)":"10,000",
    "種別":"",
    "型式":"",
    "耐震別":""
    }
  },
  {
    "type": "Feature",
    "geometry": {
       "type": "Point",
       "coordinates":  [ 140.576039,42.098473 ]
    },
    "properties": {
    "ID":6,
    "№":"第６号",
    "町名":"森川町",
    "名称":"特老「さくらの園」前",
    "口数":2,
    "取水口":"",
    "容量(ℓ)":"40,000",
    "種別":"二次製品",
    "型式":"Ⅱ型",
    "耐震別":"耐震"
    }
  },
  {
    "type": "Feature",
    "geometry": {
       "type": "Point",
       "coordinates":  [ 140.572214,42.107476 ]
    },
    "properties": {
    "ID":7,
    "№":"第７号",
    "町名":"本町",
    "名称":"プラザ「武蔵」裏",
    "口数":2,
    "取水口":"",
    "容量(ℓ)":"40,000",
    "種別":"二次製品",
    "型式":"Ⅱ型",
    "耐震別":"耐震"
    }
  },
  {
    "type": "Feature",
    "geometry": {
       "type": "Point",
       "coordinates":  [ 140.580014,42.102736 ]
    },
    "properties": {
    "ID":8,
    "№":"第８号",
    "町名":"森川町",
    "名称":"祐専寺境内",
    "口数":1,
    "取水口":"",
    "容量(ℓ)":"17,500",
    "種別":"",
    "型式":"",
    "耐震別":""
    }
  },
  {
    "type": "Feature",
    "geometry": {
       "type": "Point",
       "coordinates":  [ 140.578185,42.097251 ]
    },
    "properties": {
    "ID":9,
    "№":"第９号",
    "町名":"森川町",
    "名称":"森町基幹集落センター横",
    "口数":2,
    "取水口":"",
    "容量(ℓ)":"40,000",
    "種別":"",
    "型式":"",
    "耐震別":""
    }
  },
  {
    "type": "Feature",
    "geometry": {
       "type": "Point",
       "coordinates":  [ 140.581371,42.106127 ]
    },
    "properties": {
    "ID":10,
    "№":"第１０号",
    "町名":"新川町",
    "名称":"工藤看板店横",
    "口数":2,
    "取水口":"道路上",
    "容量(ℓ)":"40,000",
    "種別":"",
    "型式":"",
    "耐震別":""
    }
  },
  {
    "type": "Feature",
    "geometry": {
       "type": "Point",
       "coordinates":  [ 140.582723,42.106585 ]
    },
    "properties": {
    "ID":11,
    "№":"第１１号",
    "町名":"新川町",
    "名称":"谷川峰成宅前",
    "口数":1,
    "取水口":"道路上",
    "容量(ℓ)":"40,000",
    "種別":"",
    "型式":"",
    "耐震別":""
    }
  },
  {
    "type": "Feature",
    "geometry": {
       "type": "Point",
       "coordinates":  [ 140.580196,42.089592 ]
    },
    "properties": {
    "ID":12,
    "№":"第１２号",
    "町名":"森川町",
    "名称":"青葉団地成田宅前",
    "口数":1,
    "取水口":"道路上",
    "容量(ℓ)":"40,000",
    "種別":"",
    "型式":"",
    "耐震別":""
    }
  },
  {
    "type": "Feature",
    "geometry": {
       "type": "Point",
       "coordinates":  [ 140.595855,42.108495 ]
    },
    "properties": {
    "ID":13,
    "№":"第１３号",
    "町名":"港町",
    "名称":"第２分団詰所裏",
    "口数":1,
    "取水口":"",
    "容量(ℓ)":"40,000",
    "種別":"",
    "型式":"",
    "耐震別":"耐震"
    }
  },
  {
    "type": "Feature",
    "geometry": {
       "type": "Point",
       "coordinates":  [ 140.599310,42.108762 ]
    },
    "properties": {
    "ID":14,
    "№":"第１４号",
    "町名":"港町",
    "名称":"マルマスより20m線路側",
    "口数":2,
    "取水口":"",
    "容量(ℓ)":"15,800",
    "種別":"",
    "型式":"",
    "耐震別":""
    }
  },
  {
    "type": "Feature",
    "geometry": {
       "type": "Point",
       "coordinates":  [ 140.619298,42.113724 ]
    },
    "properties": {
    "ID":15,
    "№":"第１５号",
    "町名":"尾白内町",
    "名称":"生活改善センター前",
    "口数":1,
    "取水口":"",
    "容量(ℓ)":"40,000",
    "種別":"",
    "型式":"",
    "耐震別":""
    }
  },
  {
    "type": "Feature",
    "geometry": {
       "type": "Point",
       "coordinates":  [ 140.622516,42.115308 ]
    },
    "properties": {
    "ID":16,
    "№":"第１６号",
    "町名":"尾白内町",
    "名称":"松川商店前",
    "口数":1,
    "取水口":"",
    "容量(ℓ)":"30,000",
    "種別":"",
    "型式":"",
    "耐震別":""
    }
  },
  {
    "type": "Feature",
    "geometry": {
       "type": "Point",
       "coordinates":  [ 140.626304,42.117071 ]
    },
    "properties": {
    "ID":17,
    "№":"第１７号",
    "町名":"尾白内町",
    "名称":"ヤマヨ河野宅前",
    "口数":1,
    "取水口":"",
    "容量(ℓ)":"30,000",
    "種別":"",
    "型式":"",
    "耐震別":""
    }
  },
  {
    "type": "Feature",
    "geometry": {
       "type": "Point",
       "coordinates":  [ 140.616277,42.114771 ]
    },
    "properties": {
    "ID":18,
    "№":"第１８号",
    "町名":"尾白内町",
    "名称":"カネカ平田方水槽場前",
    "口数":1,
    "取水口":"",
    "容量(ℓ)":"20,000",
    "種別":"",
    "型式":"",
    "耐震別":""
    }
  },
  {
    "type": "Feature",
    "geometry": {
       "type": "Point",
       "coordinates":  [ 140.615457,42.098927 ]
    },
    "properties": {
    "ID":19,
    "№":"第１９号",
    "町名":"尾白内町",
    "名称":"尾白内南部拓栄神社付近",
    "口数":1,
    "取水口":"",
    "容量(ℓ)":"40,000",
    "種別":"",
    "型式":"",
    "耐震別":"耐震"
    }
  },
  {
    "type": "Feature",
    "geometry": {
       "type": "Point",
       "coordinates":  [ 140.563041,42.109562 ]
    },
    "properties": {
    "ID":20,
    "№":"第２０号",
    "町名":"鳥崎町",
    "名称":"佐藤ふとん店向い",
    "口数":1,
    "取水口":"",
    "容量(ℓ)":"40,000",
    "種別":"二次製品",
    "型式":"Ⅱ型",
    "耐震別":"耐震"
    }
  },
  {
    "type": "Feature",
    "geometry": {
       "type": "Point",
       "coordinates":  [ 140.501425,42.142855 ]
    },
    "properties": {
    "ID":21,
    "№":"第２１号",
    "町名":"本茅部町",
    "名称":"東セツ宅前",
    "口数":1,
    "取水口":"",
    "容量(ℓ)":"40,000",
    "種別":"",
    "型式":"Ⅰ型",
    "耐震別":""
    }
  },
  {
    "type": "Feature",
    "geometry": {
       "type": "Point",
       "coordinates":  [ 140.548959,42.112837 ]
    },
    "properties": {
    "ID":22,
    "№":"第２２号",
    "町名":"富士見町",
    "名称":"第４分団詰所横",
    "口数":2,
    "取水口":"",
    "容量(ℓ)":"60,000",
    "種別":"",
    "型式":"",
    "耐震別":""
    }
  },
  {
    "type": "Feature",
    "geometry": {
       "type": "Point",
       "coordinates":  [ 140.567912,42.105653 ]
    },
    "properties": {
    "ID":23,
    "№":"第２３号",
    "町名":"上台町",
    "名称":"岩井木工場前",
    "口数":1,
    "取水口":"",
    "容量(ℓ)":"20,000",
    "種別":"",
    "型式":"",
    "耐震別":""
    }
  },
  {
    "type": "Feature",
    "geometry": {
       "type": "Point",
       "coordinates":  [ 140.482199,42.155104 ]
    },
    "properties": {
    "ID":24,
    "№":"第２４号",
    "町名":"石倉町",
    "名称":"谷内宅前",
    "口数":1,
    "取水口":"",
    "容量(ℓ)":"40,000",
    "種別":"",
    "型式":"Ⅰ型",
    "耐震別":""
    }
  },
  {
    "type": "Feature",
    "geometry": {
       "type": "Point",
       "coordinates":  [ 140.505819,42.137278 ]
    },
    "properties": {
    "ID":25,
    "№":"第２５号",
    "町名":"本茅部町",
    "名称":"沢口要宅前",
    "口数":1,
    "取水口":"",
    "容量(ℓ)":"20,000",
    "種別":"",
    "型式":"",
    "耐震別":""
    }
  },
  {
    "type": "Feature",
    "geometry": {
       "type": "Point",
       "coordinates":  [ 140.506216,42.136761 ]
    },
    "properties": {
    "ID":26,
    "№":"第２６号",
    "町名":"本茅部町",
    "名称":"沢口正宅前",
    "口数":1,
    "取水口":"",
    "容量(ℓ)":"40,000",
    "種別":"",
    "型式":"Ⅰ型",
    "耐震別":""
    }
  },
  {
    "type": "Feature",
    "geometry": {
       "type": "Point",
       "coordinates":  [ 140.511253,42.128605 ]
    },
    "properties": {
    "ID":27,
    "№":"第２７号",
    "町名":"蛯谷町",
    "名称":"石谷小学校前",
    "口数":1,
    "取水口":"",
    "容量(ℓ)":"20,000",
    "種別":"",
    "型式":"",
    "耐震別":""
    }
  },
  {
    "type": "Feature",
    "geometry": {
       "type": "Point",
       "coordinates":  [ 140.472994,42.159920 ]
    },
    "properties": {
    "ID":28,
    "№":"第２８号",
    "町名":"石倉町",
    "名称":"石倉郵便局前浜通",
    "口数":1,
    "取水口":"",
    "容量(ℓ)":"20,000",
    "種別":"",
    "型式":"",
    "耐震別":""
    }
  },
  {
    "type": "Feature",
    "geometry": {
       "type": "Point",
       "coordinates":  [ 140.457898,42.174353 ]
    },
    "properties": {
    "ID":29,
    "№":"第２９号",
    "町名":"石倉町",
    "名称":"旧長谷川商店前",
    "口数":1,
    "取水口":"",
    "容量(ℓ)":"30,000",
    "種別":"",
    "型式":"",
    "耐震別":""
    }
  },
  {
    "type": "Feature",
    "geometry": {
       "type": "Point",
       "coordinates":  [ 140.568631,42.103397 ]
    },
    "properties": {
    "ID":30,
    "№":"第３０号",
    "町名":"上台町",
    "名称":"ロイヤルケアセンター前",
    "口数":2,
    "取水口":"",
    "容量(ℓ)":"40,000",
    "種別":"二次製品",
    "型式":"Ⅱ型",
    "耐震別":"耐震"
    }
  },
  {
    "type": "Feature",
    "geometry": {
       "type": "Point",
       "coordinates":  [ 140.572134,42.109068 ]
    },
    "properties": {
    "ID":31,
    "№":"第３１号",
    "町名":"本町",
    "名称":"第１分団詰所横",
    "口数":2,
    "取水口":"",
    "容量(ℓ)":"40,000",
    "種別":"二次製品",
    "型式":"Ⅱ型",
    "耐震別":"耐震"
    }
  },
  {
    "type": "Feature",
    "geometry": {
       "type": "Point",
       "coordinates":  [ 140.577407,42.107886 ]
    },
    "properties": {
    "ID":32,
    "№":"第３２号",
    "町名":"御幸町",
    "名称":"御幸町小公園内",
    "口数":2,
    "取水口":"",
    "容量(ℓ)":"40,000",
    "種別":"",
    "型式":"",
    "耐震別":""
    }
  },
  {
    "type": "Feature",
    "geometry": {
       "type": "Point",
       "coordinates":  [ 140.557049,42.108503 ]
    },
    "properties": {
    "ID":33,
    "№":"第３３号",
    "町名":"鳥崎町",
    "名称":"鷲ノ木小学校校庭前",
    "口数":2,
    "取水口":"",
    "容量(ℓ)":"40,000",
    "種別":"",
    "型式":"Ⅰ型",
    "耐震別":""
    }
  },
  {
    "type": "Feature",
    "geometry": {
       "type": "Point",
       "coordinates":  [ 140.560906,42.099257 ]
    },
    "properties": {
    "ID":34,
    "№":"第３４号",
    "町名":"上台町",
    "名称":"北海道ニチモウ向い",
    "口数":2,
    "取水口":"",
    "容量(ℓ)":"40,000",
    "種別":"二次製品",
    "型式":"Ⅱ型",
    "耐震別":"耐震"
    }
  },
  {
    "type": "Feature",
    "geometry": {
       "type": "Point",
       "coordinates":  [ 140.577857,42.090838 ]
    },
    "properties": {
    "ID":35,
    "№":"第３５号",
    "町名":"森川町",
    "名称":"遺跡調査事務所裏",
    "口数":2,
    "取水口":"",
    "容量(ℓ)":"40,000",
    "種別":"二次製品",
    "型式":"Ⅱ型",
    "耐震別":"耐震"
    }
  },
  {
    "type": "Feature",
    "geometry": {
       "type": "Point",
       "coordinates":  [ 140.581012,42.100985 ]
    },
    "properties": {
    "ID":36,
    "№":"第３６号",
    "町名":"森川町",
    "名称":"谷川宅前",
    "口数":2,
    "取水口":"道路上",
    "容量(ℓ)":"40,000",
    "種別":"",
    "型式":"Ⅱ型",
    "耐震別":""
    }
  },
  {
    "type": "Feature",
    "geometry": {
       "type": "Point",
       "coordinates":  [ 140.591601,42.104300 ]
    },
    "properties": {
    "ID":37,
    "№":"第３７号",
    "町名":"常盤町",
    "名称":"アカシア団地前",
    "口数":2,
    "取水口":"",
    "容量(ℓ)":"40,000",
    "種別":"",
    "型式":"Ⅱ型",
    "耐震別":""
    }
  },
  {
    "type": "Feature",
    "geometry": {
       "type": "Point",
       "coordinates":  [ 140.575701,42.107982 ]
    },
    "properties": {
    "ID":39,
    "№":"第３９号",
    "町名":"本町",
    "名称":"キクチ美容室前",
    "口数":1,
    "取水口":"道路上",
    "容量(ℓ)":"40,000",
    "種別":"",
    "型式":"Ⅱ型",
    "耐震別":""
    }
  },
  {
    "type": "Feature",
    "geometry": {
       "type": "Point",
       "coordinates":  [ 140.588801,42.068155 ]
    },
    "properties": {
    "ID":40,
    "№":"第４０号",
    "町名":"姫川",
    "名称":"農協野菜集荷場入口",
    "口数":2,
    "取水口":"",
    "容量(ℓ)":"40,000",
    "種別":"二次製品",
    "型式":"Ⅱ型",
    "耐震別":"耐震"
    }
  },
  {
    "type": "Feature",
    "geometry": {
       "type": "Point",
       "coordinates":  [ 140.600678,42.109382 ]
    },
    "properties": {
    "ID":41,
    "№":"第４１号",
    "町名":"港町",
    "名称":"マルマス佐藤水産裏",
    "口数":1,
    "取水口":"",
    "容量(ℓ)":"20,000",
    "種別":"",
    "型式":"",
    "耐震別":""
    }
  },
  {
    "type": "Feature",
    "geometry": {
       "type": "Point",
       "coordinates":  [ 140.596633,42.106493 ]
    },
    "properties": {
    "ID":42,
    "№":"第４２号",
    "町名":"東森町",
    "名称":"旧イリヤマ松居水産加工場前",
    "口数":1,
    "取水口":"",
    "容量(ℓ)":"20,000",
    "種別":"",
    "型式":"",
    "耐震別":""
    }
  },
  {
    "type": "Feature",
    "geometry": {
       "type": "Point",
       "coordinates":  [ 140.570299,42.107739 ]
    },
    "properties": {
    "ID":43,
    "№":"第４３号",
    "町名":"本町",
    "名称":"渋谷宅前",
    "口数":1,
    "取水口":"",
    "容量(ℓ)":"20,000",
    "種別":"",
    "型式":"",
    "耐震別":""
    }
  },
  {
    "type": "Feature",
    "geometry": {
       "type": "Point",
       "coordinates":  [ 140.583490,42.107926 ]
    },
    "properties": {
    "ID":44,
    "№":"第４４号",
    "町名":"新川町",
    "名称":"森漁港新港入口",
    "口数":1,
    "取水口":"",
    "容量(ℓ)":"20,000",
    "種別":"",
    "型式":"",
    "耐震別":""
    }
  },
  {
    "type": "Feature",
    "geometry": {
       "type": "Point",
       "coordinates":  [ 140.480418,42.153856 ]
    },
    "properties": {
    "ID":45,
    "№":"第４５号",
    "町名":"石倉町",
    "名称":"石倉小学校前",
    "口数":1,
    "取水口":"",
    "容量(ℓ)":"20,000",
    "種別":"",
    "型式":"",
    "耐震別":""
    }
  },
  {
    "type": "Feature",
    "geometry": {
       "type": "Point",
       "coordinates":  [ 140.612860,42.111496 ]
    },
    "properties": {
    "ID":46,
    "№":"第４６号",
    "町名":"尾白内町",
    "名称":"尾白内駅前",
    "口数":1,
    "取水口":"",
    "容量(ℓ)":"20,000",
    "種別":"",
    "型式":"",
    "耐震別":""
    }
  },
  {
    "type": "Feature",
    "geometry": {
       "type": "Point",
       "coordinates":  [ 140.579365,42.099508 ]
    },
    "properties": {
    "ID":47,
    "№":"第４７号",
    "町名":"森川町",
    "名称":"コーリュー前",
    "口数":1,
    "取水口":"",
    "容量(ℓ)":"20,000",
    "種別":"",
    "型式":"",
    "耐震別":""
    }
  },
  {
    "type": "Feature",
    "geometry": {
       "type": "Point",
       "coordinates":  [ 140.446258,42.122641 ]
    },
    "properties": {
    "ID":48,
    "№":"第４８号",
    "町名":"濁川",
    "名称":"濁川小学校前",
    "口数":1,
    "取水口":"",
    "容量(ℓ)":"30,000",
    "種別":"",
    "型式":"",
    "耐震別":""
    }
  },
  {
    "type": "Feature",
    "geometry": {
       "type": "Point",
       "coordinates":  [ 140.551765,42.112256 ]
    },
    "properties": {
    "ID":49,
    "№":"第４９号",
    "町名":"富士見町",
    "名称":"函館バス富士見町バス停前",
    "口数":1,
    "取水口":"",
    "容量(ℓ)":"20,000",
    "種別":"",
    "型式":"",
    "耐震別":""
    }
  },
  {
    "type": "Feature",
    "geometry": {
       "type": "Point",
       "coordinates":  [ 140.563776,42.108029 ]
    },
    "properties": {
    "ID":50,
    "№":"第５０号",
    "町名":"鳥崎町",
    "名称":"新井宅前",
    "口数":1,
    "取水口":"",
    "容量(ℓ)":"20,000",
    "種別":"",
    "型式":"",
    "耐震別":""
    }
  },
  {
    "type": "Feature",
    "geometry": {
       "type": "Point",
       "coordinates":  [ 140.633428,42.003861 ]
    },
    "properties": {
    "ID":51,
    "№":"第５１号",
    "町名":"赤井川",
    "名称":"赤井川小学校前",
    "口数":1,
    "取水口":"",
    "容量(ℓ)":"20,000",
    "種別":"",
    "型式":"",
    "耐震別":""
    }
  },
  {
    "type": "Feature",
    "geometry": {
       "type": "Point",
       "coordinates":  [ 140.611546,42.037716 ]
    },
    "properties": {
    "ID":52,
    "№":"第５２号",
    "町名":"駒ヶ岳",
    "名称":"駒ヶ岳郵便局横",
    "口数":1,
    "取水口":"",
    "容量(ℓ)":"20,000",
    "種別":"",
    "型式":"",
    "耐震別":""
    }
  },
  {
    "type": "Feature",
    "geometry": {
       "type": "Point",
       "coordinates":  [ 140.587669,42.103815 ]
    },
    "properties": {
    "ID":53,
    "№":"第５３号",
    "町名":"常盤町",
    "名称":"常盤福祉会館横",
    "口数":2,
    "取水口":"",
    "容量(ℓ)":"40,000",
    "種別":"",
    "型式":"",
    "耐震別":""
    }
  },
  {
    "type": "Feature",
    "geometry": {
       "type": "Point",
       "coordinates":  [ 140.511634,42.130933 ]
    },
    "properties": {
    "ID":54,
    "№":"第５４号",
    "町名":"蛯谷町",
    "名称":"松田商店横",
    "口数":1,
    "取水口":"",
    "容量(ℓ)":"20,000",
    "種別":"",
    "型式":"",
    "耐震別":""
    }
  },
  {
    "type": "Feature",
    "geometry": {
       "type": "Point",
       "coordinates":  [ 140.613531,42.102680 ]
    },
    "properties": {
    "ID":55,
    "№":"第５５号",
    "町名":"尾白内町",
    "名称":"長崎宅前",
    "口数":2,
    "取水口":"",
    "容量(ℓ)":"40,000",
    "種別":"",
    "型式":"Ⅰ型",
    "耐震別":""
    }
  },
  {
    "type": "Feature",
    "geometry": {
       "type": "Point",
       "coordinates":  [ 140.619952,42.115849 ]
    },
    "properties": {
    "ID":56,
    "№":"第５６号",
    "町名":"尾白内町",
    "名称":"今野宅前",
    "口数":1,
    "取水口":"",
    "容量(ℓ)":"20,000",
    "種別":"",
    "型式":"",
    "耐震別":""
    }
  },
  {
    "type": "Feature",
    "geometry": {
       "type": "Point",
       "coordinates":  [ 140.581253,42.098505 ]
    },
    "properties": {
    "ID":57,
    "№":"第５７号",
    "町名":"森川町",
    "名称":"山田宅車庫横",
    "口数":2,
    "取水口":"",
    "容量(ℓ)":"40,000",
    "種別":"",
    "型式":"Ⅰ型",
    "耐震別":""
    }
  },
  {
    "type": "Feature",
    "geometry": {
       "type": "Point",
       "coordinates":  [ 140.567622,42.102004 ]
    },
    "properties": {
    "ID":58,
    "№":"第５８号",
    "町名":"上台町",
    "名称":"町営住宅三差路",
    "口数":2,
    "取水口":"",
    "容量(ℓ)":"40,000",
    "種別":"",
    "型式":"Ⅰ型",
    "耐震別":""
    }
  },
  {
    "type": "Feature",
    "geometry": {
       "type": "Point",
       "coordinates":  [ 140.561560,42.105673 ]
    },
    "properties": {
    "ID":59,
    "№":"第５９号",
    "町名":"鳥崎町",
    "名称":"生活改善センター前",
    "口数":1,
    "取水口":"",
    "容量(ℓ)":"20,000",
    "種別":"",
    "型式":"",
    "耐震別":""
    }
  },
  {
    "type": "Feature",
    "geometry": {
       "type": "Point",
       "coordinates":  [ 140.442953,42.121288 ]
    },
    "properties": {
    "ID":60,
    "№":"第６０号",
    "町名":"濁川",
    "名称":"杉本宅前",
    "口数":2,
    "取水口":"",
    "容量(ℓ)":"40,000",
    "種別":"",
    "型式":"Ⅰ型",
    "耐震別":""
    }
  },
  {
    "type": "Feature",
    "geometry": {
       "type": "Point",
       "coordinates":  [ 140.557693,42.107397 ]
    },
    "properties": {
    "ID":61,
    "№":"第６１号",
    "町名":"鳥崎町",
    "名称":"鷲ノ木公営住宅前",
    "口数":2,
    "取水口":"",
    "容量(ℓ)":"40,000",
    "種別":"",
    "型式":"",
    "耐震別":""
    }
  },
  {
    "type": "Feature",
    "geometry": {
       "type": "Point",
       "coordinates":  [ 140.607292,42.036712 ]
    },
    "properties": {
    "ID":62,
    "№":"第６２号",
    "町名":"駒ヶ岳",
    "名称":"セイコーマート向い側",
    "口数":2,
    "取水口":"",
    "容量(ℓ)":"40,000",
    "種別":"",
    "型式":"Ⅰ型",
    "耐震別":""
    }
  },
  {
    "type": "Feature",
    "geometry": {
       "type": "Point",
       "coordinates":  [ 140.637907,42.002482 ]
    },
    "properties": {
    "ID":63,
    "№":"第６３号",
    "町名":"赤井川",
    "名称":"母と子の家前",
    "口数":2,
    "取水口":"",
    "容量(ℓ)":"40,000",
    "種別":"",
    "型式":"Ⅰ型",
    "耐震別":""
    }
  },
  {
    "type": "Feature",
    "geometry": {
       "type": "Point",
       "coordinates":  [ 140.601450,42.107990 ]
    },
    "properties": {
    "ID":64,
    "№":"第６４号",
    "町名":"東森町",
    "名称":"山田誠一宅前",
    "口数":2,
    "取水口":"",
    "容量(ℓ)":"40,000",
    "種別":"",
    "型式":"Ⅰ型",
    "耐震別":""
    }
  },
  {
    "type": "Feature",
    "geometry": {
       "type": "Point",
       "coordinates":  [ 140.627795,42.116434 ]
    },
    "properties": {
    "ID":65,
    "№":"第６５号",
    "町名":"尾白内町",
    "名称":"金澤宅前",
    "口数":2,
    "取水口":"",
    "容量(ℓ)":"40,000",
    "種別":"",
    "型式":"Ⅰ型",
    "耐震別":""
    }
  },
  {
    "type": "Feature",
    "geometry": {
       "type": "Point",
       "coordinates":  [ 140.457399,42.175148 ]
    },
    "properties": {
    "ID":66,
    "№":"第６６号",
    "町名":"石倉町",
    "名称":"藤田宅前",
    "口数":1,
    "取水口":"",
    "容量(ℓ)":"40,000",
    "種別":"",
    "型式":"Ⅰ型",
    "耐震別":""
    }
  },
  {
    "type": "Feature",
    "geometry": {
       "type": "Point",
       "coordinates":  [ 140.509724,42.132639 ]
    },
    "properties": {
    "ID":67,
    "№":"第６７号",
    "町名":"蛯谷町",
    "名称":"松田勇三宅横",
    "口数":1,
    "取水口":"",
    "容量(ℓ)":"40,000",
    "種別":"",
    "型式":"Ⅰ型",
    "耐震別":""
    }
  },
  {
    "type": "Feature",
    "geometry": {
       "type": "Point",
       "coordinates":  [ 140.623122,42.007596 ]
    },
    "properties": {
    "ID":68,
    "№":"第６８号",
    "町名":"赤井川",
    "名称":"グリーンピア大沼職員宿舎裏",
    "口数":2,
    "取水口":"",
    "容量(ℓ)":"40,000",
    "種別":"二次製品",
    "型式":"Ⅱ型",
    "耐震別":""
    }
  },
  {
    "type": "Feature",
    "geometry": {
       "type": "Point",
       "coordinates":  [ 140.593479,42.107050 ]
    },
    "properties": {
    "ID":69,
    "№":"第６９号",
    "町名":"港町",
    "名称":"漁村センター敷地内",
    "口数":2,
    "取水口":"",
    "容量(ℓ)":"40,000",
    "種別":"二次製品",
    "型式":"Ⅱ型",
    "耐震別":"耐震"
    }
  }
]
}